site,locationID,suggested_locationID,decimalLatitude,decimalLongitude,coordinateUncertaintyInMeters
SWH Beals,21A,21A,44.2749688,-68.31374237,10
SWH Dysarts,21A,21B,44.27415296,-68.32196911,70
Bass Harbor,21B,23A,44.2347384,-68.34908401,200
Bernard,21B,23B,44.24062188,-68.35163709,15
Northeast Harbor,21C,21C,44.29663082,-68.28161929,200
Anchorage Bravo,22B,22B,44.40379014,-68.20522976,350
Anchorage Alpha,22A,22A,44.39145975,-68.19188395,450
Bar Harbor Town Pier,22D,22D,44.402771,-68.202588,5
MDIBL Dock,22G,22G,44.39152,-68.192764,5
Berry Cove,NA,24A,44.46006397,-68.32131699,250
Eastern Bay Channel,NA,24,44.44415848,-68.2883217,1000
Hadley Point,NA,24B,44.4448815,-68.31912539,150
Jordan River,NA,25,44.4687784,-68.35578705,750
Lamoine Beach,NA,24C,44.45056128,-68.29989721,100
Raccoon Cove,NA,26B,44.46789417,-68.28379317,300
Skillings River,NA,26A,44.47337562,-68.25557322,700
Stave Island,NA,27A,44.43894636,-68.13522605,1000
The Hop,NA,27B,44.41317145,-68.15509966,10
Thomas Island E.,NA,24D,44.433387,-68.340555,150
Thomas Island W.,NA,24E,44.4318243,-68.34424557,500
Blue Hill - Mill Pond,NA,28A,44.3769051,-68.5634604,175
Brooksville - Indian Bar,NA,30C,44.37170483,-68.78452675,100
Brooksville Town Dock,NA,30D,44.38611316,-68.79685458,100
Surry Town Pier,NA,29A,44.49391302,-68.50082948,10
Penobscot - Bagaduce Lunch,NA,30A,44.39886359,-68.70377533,10
Penobscot Town Landing,NA,30B,44.4530266,-68.70588106,10